Sequence,Motion.Timestamp,Roll,Pitch,Yaw,Quaternion.x,Quaternion.y,Quaternion.z,Quaternion.w,Rot11,Rot12,Rot13,Rot21,Rot22,Rot23,Rot31,Rot32,Rot33,Gravity.x,Gravity.y,Gravity.z,Accelerometer.Timestamp,Accelerometer.x,Accelerometer.y,Accelerometer.z,Gyroscope.Timestamp,Gyroscope.x,Gyroscope.y,Gyroscope.z,Magnetometer.Timestamp,Magnetometer.x,Magnetometer.y,Magnetometer.z,Latitude,Longitude
5746,84531.812166125,-20.99305513072766,53.095556946323775,36.241302561756314,0.4683549682960453,-0.018203175559035577,0.19618575371757482,0.8612917103410838,0.9223595857620239,0.3208952248096466,0.21512562036514282,-0.3549974262714386,0.4843095541000366,0.7996380925178528,0.15241265296936035,-0.8139229416847229,0.5606245398521423,-0.21512563526630402,-0.7996380925178528,-0.5606245398521423,84531.805919125,84531.805919125,-0.23065185546875,-0.8351287841796875,-0.55889892578125,84531.805919125,84531.805919125,-0.2825302183628082,0.2403380423784256,0.05056437477469444,84531.795998125,84531.795998125,-39.03434753417969,-245.77960205078125,-393.0060729980469,32.071410581777606,34.84977108912193
5747,84531.877137125,-21.104804781967047,52.14913604605842,36.91845954140883,0.4619588827756819,-0.0192144603732972,0.2032405845030805,0.8630864595367576,0.9166481494903564,0.3330758213996887,0.2209450751543045,-0.36858099699020386,0.49057450890541077,0.7896106243133545,0.15461011230945587,-0.8052312135696411,0.5724495649337769,-0.2209450751543045,-0.7896106243133545,-0.5724495649337769,84531.87588812501,84531.87588812501,-0.24200439453125,-0.769287109375,-0.5384368896484375,84531.87588812501,84531.87588812501,-0.031087346374988556,0.1960049271583557,0.10980585962533951,84531.87565312501,84531.87565312501,-38.9288330078125,-245.5786895751953,-393.16448974609375,32.071410581777606,34.84977108912193
5749,84532.012076125,-20.267622679502274,51.03965080750104,37.536636691558115,0.4526383788180899,-0.013887111340152233,0.21405044430047046,0.865510316606563,0.9079791307449341,0.3579540252685547,0.21781377494335175,-0.38309741020202637,0.4986017942428589,0.7775812745094299,0.16973601281642914,-0.789471447467804,0.5898512601852417,-0.21781377494335175,-0.7775812745094299,-0.5898513197898865,84532.005829125,84532.005829125,-0.257965087890625,-0.7702789306640625,-0.5510406494140625,84532.005829125,84532.005829125,-0.22605231404304504,0.18558025360107422,0.13570749759674072,84531.995134125,84531.995134125,-38.85169982910156,-245.33078002929688,-393.1909484863281,32.071410581777606,34.84977108912193
5750,84532.077047125,-19.152676984265735,49.54870822726334,37.791434854576906,0.43985555733192366,-0.009094840694276133,0.22398776969569517,0.8696401037328397,0.8994935154914856,0.38157668709754944,0.2128630131483078,-0.39757832884788513,0.5127131342887878,0.7609577775001526,0.18122605979442596,-0.7691063284873962,0.612888753414154,-0.2128630131483078,-0.7609577775001526,-0.612888753414154,84532.075798125,84532.075798125,-0.239959716796875,-0.77032470703125,-0.60626220703125,84532.075798125,84532.075798125,-0.45856863260269165,0.35449841618537903,0.27936720848083496,84532.074785125,84532.074785125,-38.484039306640625,-244.74632263183594,-393.66668701171875,32.071410581777606,34.84977108912193
5752,84532.21198612501,-18.621555989503893,45.67559605755285,39.27048156576663,0.4108429019963927,-0.011732665407861737,0.246465625150585,0.8776816969358321,0.8782340884208679,0.4229961633682251,0.22311238944530487,-0.44227731227874756,0.5409256219863892,0.7153952121734619,0.18192221224308014,-0.7269619703292847,0.6621409058570862,-0.22311238944530487,-0.7153952121734619,-0.6621409058570862,84532.205739125,84532.205739125,-0.23870849609375,-0.7090606689453125,-0.65447998046875,84532.205739125,84532.205739125,-0.38467416167259216,0.21474052965641022,0.2599194645881653,84532.194273125,84532.194273125,-37.980438232421875,-243.06492614746094,-393.8904113769531,32.071410581777606,34.84977108912193
5753,84532.276956125,-18.378253565945577,44.91501022692034,39.667691025389715,0.40480064130018134,-0.010882425642112076,0.2521544956314596,0.8788835149028607,0.8725993633270264,0.4344184398651123,0.2232733815908432,-0.45203930139541626,0.5451090931892395,0.7060571312904358,0.18501584231853485,-0.717033326625824,0.6720359921455383,-0.223273366689682,-0.7060571312904358,-0.6720360517501831,84532.27570712501,84532.27570712501,-0.2524566650390625,-0.6875152587890625,-0.6735992431640625,84532.27570712501,84532.27570712501,-0.06449244171380997,0.10972409695386887,0.07705643773078918,84532.273933125,84532.273933125,-38.04283142089844,-242.49085998535156,-393.6937255859375,32.071410581777606,34.84977108912193
5755,84532.41189837501,-18.688317990599323,42.413993531773116,41.11508449821837,0.3873615355459762,-0.01639161247691649,0.2680308708039741,0.8819533903300738,0.8557815551757812,0.4600825309753418,0.23656298220157623,-0.4854804277420044,0.5562210083007812,0.6744827032089233,0.17873643338680267,-0.6920565366744995,0.6993647217750549,-0.23656298220157623,-0.6744827032089233,-0.6993647217750549,84532.405652375,84532.405652375,-0.3710174560546875,-0.7742156982421875,-0.721466064453125,84532.405652375,84532.405652375,-0.5666689872741699,0.01937822438776493,0.7045049071311951,84532.39342037501,84532.39342037501,-37.793426513671875,-242.1109619140625,-394.1049499511719,32.071410581777606,34.84977108912193
5756,84532.47686937501,-20.78800660433105,34.89554623372208,45.626871075201336,0.338580089130041,-0.04430283269008238,0.3139590838067809,0.8859066019051357,0.7989339232444763,0.5262767672538757,0.29109692573547363,-0.5862769484519958,0.5735864043235779,0.5720821619033813,0.13410425186157227,-0.6277192831039429,0.7668015360832214,-0.29109692573547363,-0.5720821022987366,-0.7668015360832214,84532.475620375,84532.475620375,-0.26910400390625,-0.6010589599609375,-0.5619049072265625,84532.475620375,84532.475620375,-2.5312294960021973,1.3234554529190063,1.8722128868103027,84532.473069375,84532.473069375,-37.272308349609375,-240.1585235595703,-393.0701904296875,32.071410581777606,34.84977108912193
5758,84532.611808375,-6.039190456614651,23.565634251621344,47.16157799416478,0.2075202478179948,0.03431463837520381,0.3812099742011184,0.900242673862568,0.7070029377937317,0.7006049752235413,0.0964345782995224,-0.672120988368988,0.6232286095619202,0.3997993469238281,0.22000057995319366,-0.34747499227523804,0.9115157127380371,-0.0964345708489418,-0.39979931712150574,-0.9115157127380371,84532.605562375,84532.605562375,-0.110015869140625,-0.3515472412109375,-0.9853515625,84532.605562375,84532.605562375,-0.6418426036834717,1.52229905128479,0.010868093930184841,84532.59256037501,84532.59256037501,-34.04046630859375,-236.03733825683594,-392.8753662109375,32.071410581777606,34.84977108912193
5759,84532.68177737501,-0.5284786848545365,21.493975263921822,46.7964758003864,0.17293566785508993,0.06989270584718817,0.3893608433020716,0.9020013858440521,0.6870262622833252,0.726581871509552,0.008582115173339844,-0.6782341599464417,0.636982798576355,0.36640340089797974,0.26075538992881775,-0.2575494647026062,0.9304165244102478,-0.008582119829952717,-0.36640340089797974,-0.9304165244102478,84532.67553037501,84532.67553037501,0.042144775390625,-0.32025146484375,-0.990753173828125,84532.67553037501,84532.67553037501,-0.07324305176734924,1.1393051147460938,-0.16616420447826385,84532.672231375,84532.672231375,-32.86335754394531,-235.30966186523438,-393.351806640625,32.071410581777606,34.84977108912193
5761,84532.811718375,5.941517939514079,23.01497665387439,38.08435465002735,0.17175672676187123,0.11300644242144565,0.32904947386952305,0.9216591186663352,0.7579119801521301,0.645362138748169,-0.09527391195297241,-0.5677236318588257,0.7244521379470825,0.39097175002098083,0.32133975625038147,-0.24223288893699646,0.9154583215713501,0.09527391195297241,-0.39097172021865845,-0.9154583215713501,84532.80547237501,84532.80547237501,0.2042083740234375,-0.3174591064453125,-0.756256103515625,84532.80547237501,84532.80547237501,0.5346897840499878,0.41722944378852844,-1.7387192249298096,84532.791728375,84532.791728375,-31.9991455078125,-236.16738891601562,-394.4569396972656,32.071410581777606,34.84977108912193
5762,84532.876689375,11.842637480400818,25.15627340798684,33.73082016812491,0.17808063277158862,0.15919961836010194,0.3031502013869158,0.9225198445614078,0.7655108571052551,0.616024911403656,-0.1857592761516571,-0.5026233792304993,0.7527744770050049,0.42508864402770996,0.4016999900341034,-0.2320430427789688,0.8858855366706848,0.1857592612504959,-0.4250886142253876,-0.8858855366706848,84532.875440375,84532.875440375,-0.156646728515625,-0.676513671875,-0.8964691162109375,84532.875440375,84532.875440375,0.43447503447532654,0.8456122279167175,0.42831113934516907,84532.871397375,84532.871397375,-32.01255798339844,-237.900146484375,-395.5665283203125,32.071410581777606,34.84977108912193
5764,84533.01162837501,35.54945384212251,47.42112602942408,21.90763059656344,0.3228334623861345,0.3471759414483339,0.2861927524019953,0.8326710209608147,0.595125138759613,0.7007688283920288,-0.3933815360069275,-0.25244879722595215,0.6277445554733276,0.7363466024398804,0.7629519104957581,-0.3389096260070801,0.5504948496818542,0.3933815062046051,-0.7363466024398804,-0.5504948496818542,84533.005382375,84533.005382375,0.338134765625,-0.90283203125,-0.5262908935546875,84533.005382375,84533.005382375,7.938776969909668,6.253985404968262,0.9126845002174377,84532.99088737501,84532.99088737501,-30.3382568359375,-240.9835662841797,-398.021728515625,32.07144628575681,34.849777694420844
5765,84533.07659937501,101.32120783528148,63.42244218533559,-27.15212984659683,0.4783412981476177,0.5613419776503512,0.26858493908019526,0.619634507377045,0.22551457583904266,0.8698750734329224,-0.4387032091617584,0.2041771113872528,0.3981034755706787,0.8943295478820801,0.9526042938232422,-0.2912575900554657,-0.08783048391342163,0.43870317935943604,-0.8943295478820801,0.08783042430877686,84533.075350375,84533.075350375,0.4937286376953125,-0.9175872802734375,-0.14324951171875,84533.075350375,84533.075350375,7.6965012550354,5.594738006591797,0.9006576538085938,84533.070557375,84533.070557375,-20.464157104492188,-252.30807495117188,-398.7597351074219,32.07144628575681,34.849777694420844
5767,84533.211538375,175.2259445533915,26.970239537106032,-73.41591742595608,0.5885391708246724,0.7731085591972621,0.16257770259766946,0.1717364084067221,-0.24825669825077057,0.9658503532409668,-0.07417507469654083,0.8541682958602905,0.2543802559375763,0.45352762937545776,0.4569084644317627,0.049233198165893555,-0.8881503939628601,0.07417508214712143,-0.45352762937545776,0.8881503939628601,84533.205292375,84533.205292375,0.0462493896484375,-0.5015411376953125,0.46282958984375,84533.205292375,84533.205292375,3.181922674179077,1.583473801612854,-0.7663368582725525,84533.190053375,84533.190053375,-18.0506591796875,-261.0372619628906,-388.195556640625,32.07144630089084,34.84977769722067
5768,84533.276509375,171.93516818597956,23.93181882843323,-72.25171894148491,0.5870989678263954,0.7796213465286128,0.12649295597835714,0.17749650671837694,-0.2476198971271515,0.9603338837623596,-0.12823235988616943,0.8705256581306458,0.2786286771297455,0.40564924478530884,0.4252879023551941,-0.011182799935340881,-0.9049893617630005,0.12823235988616943,-0.40564924478530884,0.9049893021583557,84533.27526037501,84533.27526037501,0.1353759765625,-0.4921722412109375,1.1373748779296875,84533.27526037501,84533.27526037501,-0.1401965171098709,-0.8886246681213379,-0.11412284523248672,84533.26970637501,84533.26970637501,-18.239471435546875,-262.43511962890625,-393.029296875,32.07144630089084,34.84977769722067
5770,84533.411445,151.9234696036506,38.93076606537865,-65.72067915020241,0.5642008875238167,0.7244709749832154,0.1474638969124015,0.36752355630680406,-0.09320755302906036,0.9258872270584106,-0.366121768951416,0.7091014385223389,0.31986352801322937,0.6283808350563049,0.6989188194274902,-0.20104758441448212,-0.6863616108894348,0.366121768951416,-0.6283808350563049,0.6863616704940796,84533.405199,84533.405199,0.6221771240234375,-0.80377197265625,0.726348876953125,84533.405199,84533.405199,-4.774586200714111,-4.697441101074219,-0.07007602602243423,84533.38919300001,84533.38919300001,-18.921035766601562,-261.6826171875,-393.127197265625,32.07140944786808,34.84975982914612
5771,84533.476416,118.35119707435119,54.090521117190164,-46.846901665953226,0.517829423295154,0.6091890624663309,0.1768673875609791,0.5739856007577061,0.19521325826644897,0.8339506387710571,-0.5161572098731995,0.4278733432292938,0.4011412262916565,0.8099446296691895,0.8825057148933411,-0.3789619207382202,-0.2785172462463379,0.5161572098731995,-0.8099446296691895,0.2785172462463379,84533.47516700001,84533.47516700001,0.6201934814453125,-0.9683074951171875,0.1783905029296875,84533.47516700001,84533.47516700001,-6.191615104675293,-6.1149444580078125,0.4475977420806885,84533.46885,84533.46885,-18.90740966796875,-258.679443359375,-392.41351318359375,32.07140920324496,34.84975897172642
5773,84533.61135600001,22.212874913674685,39.74577820496575,16.90920348268095,0.3033076876258846,0.22823514332885628,0.2004512947427232,0.9031790342137482,0.815455973148346,0.5005377531051636,-0.290677547454834,-0.22363588213920593,0.735647439956665,0.6393823027610779,0.5338712334632874,-0.45638221502304077,0.7118263244628906,0.290677547454834,-0.6393823623657227,-0.7118263244628906,84533.60510900001,84533.60510900001,0.2781982421875,-0.6706390380859375,-0.1996917724609375,84533.60510900001,84533.60510900001,-3.9913063049316406,-2.931553840637207,0.5268430113792419,84533.58834700001,84533.58834700001,-27.919906616210938,-248.8628387451172,-398.23992919921875,32.07140920324496,34.84975897172642
5774,84533.676326,12.483657341888499,27.113306036213633,23.524221357003565,0.20657835344305112,0.15097675250257106,0.2219451641317521,0.9408887863777909,0.8558927178382874,0.48002851009368896,-0.19240650534629822,-0.35527437925338745,0.8161314725875854,0.4557516574859619,0.37580278515815735,-0.32171738147735596,0.8690627813339233,0.1924065351486206,-0.4557516276836395,-0.8690627813339233,84533.675077,84533.675077,0.2057342529296875,-0.5264129638671875,-0.7389373779296875,84533.675077,84533.675077,-4.201199531555176,-1.2975612878799438,0.384830504655838,84533.668005,84533.668005,-32.586517333984375,-242.8597869873047,-396.30181884765625,32.07140920324496,34.84975897172642
5776,84533.811266,4.3680524823477835,-0.1334779167858142,31.460806864757394,-0.01145220771033031,0.036366364564339816,0.27087141071211446,0.9618601286612487,0.8506123423576355,0.5202478170394897,-0.07616286724805832,-0.5219137668609619,0.8529950380325317,-0.002329627051949501,0.06375456601381302,0.041732057929039,0.9970926642417908,0.07616285979747772,0.002329627051949501,-0.9970926642417908,84533.805019,84533.805019,-0.017913818359375,0.11260986328125,-1.147125244140625,84533.805019,84533.805019,-1.0960135459899902,0.642787754535675,0.5768390893936157,84533.78748300001,84533.78748300001,-36.872802734375,-236.85134887695312,-389.6105651855469,32.07140920324496,34.84975897172642
5777,84533.876237,6.259307437332121,0.3216520346963308,32.27198903094098,-0.01248071294196026,0.05322352558077446,0.2776497971549679,0.9591256809795082,0.8401557207107544,0.5312735438346863,-0.10902663320302963,-0.5339305996894836,0.8455096483230591,0.005613857880234718,0.09516555815935135,0.05349614471197128,0.9940229654312134,0.10902663320302963,-0.005613857414573431,-0.9940229654312134,84533.87498800001,84533.87498800001,0.0428466796875,0.11309814453125,-1.173828125,84533.87498800001,84533.87498800001,1.2606197595596313,0.810614824295044,0.2188495248556137,84533.867134,84533.867134,-37.09004211425781,-235.9761505126953,-388.30670166015625,32.07140920324496,34.84975897172642
5779,84534.011176,52.461797441744565,50.58958220019464,11.929819751345505,0.3396722522936914,0.4372783333716549,0.27210902617637117,0.7869989149451388,0.4694886803627014,0.725361704826355,-0.5034193992614746,-0.13123640418052673,0.6211588978767395,0.7726181149482727,0.8731309175491333,-0.2966685891151428,0.38682085275650024,0.5034193992614746,-0.7726181745529175,-0.38682085275650024,84534.004929,84534.004929,0.63116455078125,-0.89959716796875,-0.7025604248046875,84534.004929,84534.004929,10.152485847473145,5.952878952026367,1.9163057804107666,84533.986608,84533.986608,-29.907211303710938,-240.51803588867188,-397.8354187011719,32.07140920324496,34.84975897172642
5780,84534.076147,115.18595113780232,60.20258194557223,-41.543025678201076,0.5103471794522353,0.5876078543709907,0.23146980578749146,0.5836819717787658,0.20227745175361633,0.869977593421936,-0.4496923089027405,0.32955852150917053,0.3719349801540375,0.8677878379821777,0.9222121834754944,-0.323733925819397,-0.2114744782447815,0.4496923089027405,-0.8677878379821777,0.2114744633436203,84534.074898,84534.074898,0.40106201171875,-0.665985107421875,-0.1060028076171875,84534.074898,84534.074898,6.191127777099609,3.644911766052246,0.7240410447120667,84534.066263,84534.066263,-20.406524658203125,-253.5955810546875,-397.2744140625,32.07140920324496,34.84975897172642
5782,84534.21108600001,155.47847108242627,36.114125388988164,-72.63676396114957,0.6032948568224772,0.7095957414252124,0.12447247406310744,0.34207589966808083,-0.03803897649049759,0.9413489699363708,-0.3352839946746826,0.7710328698158264,0.24108386039733887,0.5893955230712891,0.6356583833694458,-0.23609498143196106,-0.7349815368652344,0.3352839946746826,-0.5893955230712891,0.7349815964698792,84534.20484,84534.20484,0.26953125,-0.58294677734375,0.674163818359375,84534.20484,84534.20484,2.973310708999634,1.1575850248336792,-0.5794740319252014,84534.185736,84534.185736,-22.258224487304688,-258.6830749511719,-389.9715270996094,32.07140920324496,34.84975897172642
5783,84534.27605700001,156.45894293718158,29.598124732063592,-73.87241060688567,0.6104228774167925,0.7252285806725532,0.08135546109032049,0.3079101479095649,-0.06515044718980789,0.9354925751686096,-0.3472880423069,0.8352919220924377,0.2415304183959961,0.4939134120941162,0.5459330081939697,-0.2579081654548645,-0.7971451878547668,0.34728801250457764,-0.4939134120941162,0.7971451878547668,84534.274808,84534.274808,0.3810272216796875,-0.601409912109375,0.8853759765625,84534.274808,84534.274808,0.9579749703407288,-0.5029651522636414,-0.17811860144138336,84534.26539,84534.26539,-28.669708251953125,-256.4906005859375,-395.5880126953125,32.07140920324496,34.84975897172642
5785,84534.41099691667,150.78302227125766,30.923880589027668,-75.55373159200161,0.6244761510138075,0.6959784487314733,0.05499697850542626,0.3501698345432983,0.02517867088317871,0.907760500907898,-0.41873273253440857,0.8307273387908936,0.21400976181030273,0.5138988494873047,0.5561099052429199,-0.36079198122024536,-0.7487128973007202,0.4187327027320862,-0.5138988494873047,0.748712956905365,84534.40474991668,84534.40474991668,0.4973602294921875,-0.70428466796875,0.7139434814453125,84534.40474991668,84534.40474991668,-1.8884376287460327,-1.6589429378509521,0.623590350151062,84534.38486591667,84534.38486591667,-35.147674560546875,-256.37811279296875,-402.47564697265625,32.07140920324496,34.84975897172642
5786,84534.47596791667,138.0612987037646,42.260955693534996,-70.47459284619775,0.6078988908238755,0.6369620621652295,0.08234537245088235,0.4668593630375676,0.17499718070030212,0.8513044714927673,-0.49462804198265076,0.6975296139717102,0.2473563849925995,0.6725083589553833,0.6948586702346802,-0.4627048075199127,-0.5505234003067017,0.49462807178497314,-0.6725083589553833,0.5505234599113464,84534.47471891667,84534.47471891667,0.5503692626953125,-0.7774200439453125,0.684173583984375,84534.47471891667,84534.47471891667,-3.6723008155822754,-2.902686834335327,1.0225143432617188,84534.46452991667,84534.46452991667,-30.536102294921875,-257.1354675292969,-392.8323059082031,32.07140920324496,34.84975897172642
5788,84534.61090691667,72.31189825912675,60.30900741423396,-21.506040600537183,0.49364989442589385,0.42551336869857376,0.16090727211121564,0.7411862250330598,0.5860944390296936,0.6586337089538574,-0.47190552949905396,0.18158474564552307,0.4608372449874878,0.86870938539505,0.7896329760551453,-0.5948366522789001,0.15049630403518677,0.47190558910369873,-0.86870938539505,-0.15049630403518677,84534.60465991667,84534.60465991667,0.4079437255859375,-0.8047027587890625,0.1320648193359375,84534.60465991667,84534.60465991667,-4.696953296661377,-3.1354148387908936,1.0424611568450928,84534.58401291668,84534.58401291668,-24.333206176757812,-256.69744873046875,-392.9625549316406,32.07140920324496,34.84975897172642
5789,84534.67587791667,40.984695148000405,53.82453298855757,5.733223040921411,0.4078406005187587,0.33298173909533585,0.2000306854703069,0.8263032084607289,0.6982218027114868,0.6021789312362671,-0.38712644577026367,-0.05896502733230591,0.5873075127601624,0.8072131872177124,0.7134490013122559,-0.540786862373352,0.445578396320343,0.38712647557258606,-0.8072131276130676,-0.4455784261226654,84534.67462891668,84534.67462891668,0.27239990234375,-0.6748199462890625,-0.1365814208984375,84534.67462891668,84534.67462891668,-3.8356237411499023,-1.4519338607788086,0.5205979347229004,84534.66366891668,84534.66366891668,-26.32904052734375,-252.27236938476562,-397.2218017578125,32.07140920324496,34.84975897172642
5791,84534.81081791667,19.092613637299937,29.637553461093095,29.62062196196046,0.20285817292128375,0.21947470363446317,0.28470329865432,0.9108366336334162,0.7415497899055481,0.6076807975769043,-0.28430241346359253,-0.4295918643474579,0.7555851936340332,0.4945116639137268,0.5153200030326843,-0.24457097053527832,0.8213587999343872,0.28430241346359253,-0.4945116639137268,-0.821358859539032,84534.80457091668,84534.80457091668,0.27294921875,-0.506439208984375,-0.7130279541015625,84534.80457091668,84534.80457091668,-3.6638917922973633,-0.24512533843517303,0.617617666721344,84534.78315091667,84534.78315091667,-29.454879760742188,-243.80557250976562,-398.315185546875,32.07140920324496,34.84975897172642
5792,84534.87578891667,16.000257473549457,19.75896377562184,35.2333096816253,0.12044197105513947,0.18210298872559763,0.3180165018650644,0.9226038296769288,0.7314079999923706,0.6306721568107605,-0.2594127655029297,-0.5429407954216003,0.7687184810638428,0.33806395530700684,0.41262292861938477,-0.10641694068908691,0.9046644568443298,0.2594127655029297,-0.33806395530700684,-0.9046644568443298,84534.87453991667,84534.87453991667,0.197479248046875,-0.264495849609375,-1.01641845703125,84534.87453991667,84534.87453991667,-2.3088464736938477,-0.39134806394577026,0.3258225619792938,84534.86281091667,84534.86281091667,-30.243240356445312,-238.33724975585938,-396.89581298828125,32.07140920324496,34.84975897172642
5794,84535.01072791667,5.236942025646882,1.3436451722924376,42.53472114317449,-0.005654429025465772,0.04681941102952728,0.36281597726218484,0.9306667286474656,0.7323450446128845,0.6747920513153076,-0.09124957025051117,-0.6758509874343872,0.7366651892662048,0.02344888262450695,0.08304350078105927,0.04449843615293503,0.9955519437789917,0.09124957025051117,-0.02344888262450695,-0.9955519437789917,84535.00448091667,84535.00448091667,0.0507659912109375,0.2322540283203125,-1.2744903564453125,84535.00448091667,84535.00448091667,-1.2951442003250122,-1.4230681657791138,0.18845592439174652,84534.98229391668,84534.98229391668,-32.27665710449219,-231.88662719726562,-392.2811279296875,32.07140920324496,34.84975897172642
5795,84535.07569891667,5.786465568776509,3.834308986849779,39.658422248214855,0.014318303901044601,0.058789493489430286,0.34018401357116423,0.9384102076035367,0.761637270450592,0.6401478052139282,-0.10059560090303421,-0.6367807388305664,0.768139660358429,0.06687137484550476,0.12007903307676315,0.013125604018568993,0.9926775693893433,0.10059560835361481,-0.06687137484550476,-0.9926775693893433,84535.07444991668,84535.07444991668,-0.066864013671875,0.1390838623046875,-0.9620208740234375,84535.07444991668,84535.07444991668,2.9701926708221436,1.4265432357788086,-0.7449122667312622,84535.06194391668,84535.06194391668,-33.038330078125,-230.68521118164062,-389.734130859375,32.07140920324496,34.84975897172642
5797,84535.21063891667,48.254511808099416,52.32706157910186,17.859274999860574,0.3405891390033727,0.4248988722186941,0.3052003890209881,0.7812252566853729,0.45262736082077026,0.76629239320755,-0.4559875726699829,-0.18742865324020386,0.5817035436630249,0.7915122509002686,0.8717793226242065,-0.27279505133628845,0.40692001581192017,0.4559875726699829,-0.7915122509002686,-0.4069199860095978,84535.20439191668,84535.20439191668,0.3901214599609375,-0.7207489013671875,-0.3929901123046875,84535.20439191668,84535.20439191668,7.555129528045654,4.292810440063477,0.5828224420547485,84535.18139991668,84535.18139991668,-25.889297485351562,-240.48829650878906,-399.5029602050781,32.07140920324496,34.84975897172642
5798,84535.27560991667,89.70128266482638,60.84100973492782,-17.87194262470386,0.44908062941730664,0.5450288709705676,0.25780810076053123,0.659397540904366,0.2729570269584656,0.8295198678970337,-0.4872281551361084,0.14952775835990906,0.46372318267822266,0.8732709884643555,0.9503346681594849,-0.31121957302093506,0.0025402605533599854,0.4872281551361084,-0.8732710480690002,-0.0025402361061424017,84535.27436091666,84535.27436091666,0.3732757568359375,-0.7771759033203125,-0.14251708984375,84535.27436091666,84535.27436091666,3.815734624862671,1.843055248260498,-0.1747414469718933,84535.26103491668,84535.26103491668,-19.82171630859375,-251.54798889160156,-398.8598937988281,32.07140920324496,34.84975897172642
5800,84535.41054854167,123.11903504361085,51.100939350731494,-48.52900709769524,0.5132762889094373,0.6388248835359048,0.16917541193024277,0.547567197458461,0.1265648901462555,0.8410571813583374,-0.5259315967559814,0.47051751613616943,0.4158543050289154,0.778253436088562,0.8732665777206421,-0.34595954418182373,-0.34309953451156616,0.5259316563606262,-0.778253436088562,0.34309956431388855,84535.40430254168,84535.40430254168,0.5404510498046875,-0.872314453125,0.3715057373046875,84535.40430254168,84535.40430254168,1.6900217533111572,0.7418538928031921,-0.23651480674743652,84535.38049354167,84535.38049354167,-19.521484375,-256.65863037109375,-394.5229797363281,32.07140920324496,34.84975897172642
5801,84535.47551954167,130.79951341612144,47.50550210429274,-55.38775734920506,0.5352370305721301,0.6589523851631524,0.1471978414681075,0.5075783641070368,0.08822913467884064,0.8548202514648438,-0.5113683938980103,0.5559625625610352,0.38370823860168457,0.7373421788215637,0.8265113830566406,-0.3493567109107971,-0.44139379262924194,0.511368453502655,-0.7373422384262085,0.4413938522338867,84535.47427054167,84535.47427054167,0.570526123046875,-0.8795928955078125,0.4548187255859375,84535.47427054167,84535.47427054167,1.4119848012924194,0.6346341967582703,0.047095075249671936,84535.46014054168,84535.46014054168,-20.780487060546875,-257.4345703125,-393.91033935546875,32.07140920324496,34.84975897172642
5803,84535.61045954167,112.93155331204902,51.63912197239114,-45.45364067254488,0.5118109146272968,0.5991281997730614,0.14273764488480198,0.5989332044677632,0.24134276807308197,0.7842613458633423,-0.571566104888916,0.44230008125305176,0.4353511333465576,0.7841174006462097,0.863784909248352,-0.44204479455947876,-0.24180996417999268,0.5715661644935608,-0.7841174006462097,0.24181002378463745,84535.60421254167,84535.60421254167,0.5998687744140625,-0.891571044921875,0.206390380859375,84535.60421254167,84535.60421254167,-4.432681560516357,-4.314781665802002,-0.14070065319538116,84535.57961054167,84535.57961054167,-22.430007934570312,-258.00469970703125,-393.199462890625,32.07140920324496,34.84975897172642
5804,84535.67543054167,64.32211402944347,50.54093229862915,-9.657483714210345,0.40062466153268556,0.44923200302125155,0.1619867907377954,0.7819532371564973,0.543901801109314,0.6132790446281433,-0.572765052318573,0.10661464929580688,0.6265203356742859,0.7720788717269897,0.832348644733429,-0.48100021481513977,0.2753809690475464,0.572765052318573,-0.772078812122345,-0.2753809690475464,84535.67418154168,84535.67418154168,0.6512451171875,-0.935760498046875,-0.1361541748046875,84535.67418154168,84535.67418154168,-7.065615653991699,-6.267744064331055,-0.0020967067684978247,84535.65925954167,84535.65925954167,-23.332351684570312,-254.76290893554688,-396.07611083984375,32.07140920324496,34.84975897172642
5806,84535.81037054167,16.068328799225505,24.440309033475085,21.59709629384096,0.18028734140302474,0.17344609437713285,0.21037364170479597,0.9450692458589687,0.8513187766075134,0.4601755738258362,-0.2519817352294922,-0.33509504795074463,0.8464788198471069,0.4137450158596039,0.4036925435066223,-0.2677910625934601,0.8748258352279663,0.2519817352294922,-0.4137450158596039,-0.8748258352279663,84535.80412354167,84535.80412354167,0.2790069580078125,-0.42718505859375,-1.060150146484375,84535.80412354167,84535.80412354167,-2.3305444717407227,-2.4155795574188232,0.4303532540798187,84535.77874454168,84535.77874454168,-32.925933837890625,-243.2229766845703,-397.0504150390625,32.07140920324496,34.84975897172642
5807,84535.87534154167,7.012552917830219,15.363476973575363,24.002050195839356,0.1179016737871176,0.08702629132297002,0.21367378603169382,0.965851553131811,0.8935398459434509,0.433275431394577,-0.11772395670413971,-0.3922332227230072,0.8808854222297668,0.2649415135383606,0.21849395334720612,-0.19056054949760437,0.9570512175559998,0.1177239641547203,-0.2649415135383606,-0.9570512175559998,84535.87409254168,84535.87409254168,0.0788726806640625,-0.25604248046875,-0.5944061279296875,84535.87409254168,84535.87409254168,-1.6900337934494019,-0.4542545974254608,0.300589919090271,84535.85839454168,84535.85839454168,-36.16297912597656,-240.08619689941406,-394.1816711425781,32.07140920324496,34.84975897172642
5809,84536.01028154168,6.832315102351228,8.937119028770939,28.32957203387708,0.060871442459997156,0.0766326300670872,0.24803559475344789,0.9637948286488839,0.865211546421051,0.4874403178691864,-0.11751968413591385,-0.46878138184547424,0.8695459961891174,0.15535040199756622,0.17791281640529633,-0.07931992411613464,0.9808441996574402,0.11751969903707504,-0.15535040199756622,-0.9808441996574402,84536.00403454168,84536.00403454168,0.05560302734375,-0.187103271484375,-0.929290771484375,84536.00403454168,84536.00403454168,-0.40887460112571716,0.5003378987312317,0.3900662660598755,84535.97786754167,84535.97786754167,-37.22755432128906,-238.35154724121094,-390.58404541015625,32.07140920324496,34.84975897172642
5810,84536.07525254168,8.78228026966455,9.44790925003936,30.413787273593794,0.059223088561322544,0.09517173416713114,0.26673161355585673,0.9572299715142957,0.8395931720733643,0.5219197273254395,-0.15060913562774658,-0.49937427043914795,0.8506937623023987,0.16415084898471832,0.21379581093788147,-0.06260961294174194,0.9748699069023132,0.15060913562774658,-0.16415084898471832,-0.9748699069023132,84536.07400354167,84536.07400354167,0.0890350341796875,-0.1817474365234375,-1.024566650390625,84536.07400354167,84536.07400354167,0.2509251534938812,0.13809901475906372,0.6505346298217773,84536.05752054167,84536.05752054167,-36.814239501953125,-237.36415100097656,-390.776123046875,32.07140920324496,34.84975897172642
5812,84536.21019254166,7.057658178375732,17.251913533590052,33.41047992017992,0.12588850848171412,0.10131689310137136,0.29249977355839885,0.942513086914888,0.8083575367927551,0.5768789649009705,-0.11734027415513992,-0.5258604884147644,0.7971919178962708,0.2965734601020813,0.2646297216415405,-0.1780328005552292,0.9477739334106445,0.11734027415513992,-0.2965734601020813,-0.9477739334106445,84536.20394554167,84536.20394554167,0.1087799072265625,-0.2463531494140625,-0.9774017333984375,84536.20394554167,84536.20394554167,1.0081031322479248,-0.3529924154281616,0.7138696312904358,84536.17701254167,84536.17701254167,-36.6883544921875,-237.21311950683594,-391.8955383300781,32.07140920324496,34.84975897172642
5813,84536.27516354168,5.179645222884041,18.204123621207575,36.43943980630383,0.1361590993226728,0.09179026389904911,0.3151991925023009,0.9347111396363064,0.7844480276107788,0.6142365336418152,-0.08576028794050217,-0.5642442107200623,0.7642203569412231,0.31240326166152954,0.25742924213409424,-0.1966744065284729,0.9460704922676086,0.08576028794050217,-0.31240329146385193,-0.9460704922676086,84536.27391454167,84536.27391454167,0.049072265625,-0.3192291259765625,-0.96392822265625,84536.27391454167,84536.27391454167,0.17927227914333344,0.13681164383888245,1.1931475400924683,84536.25667254167,84536.25667254167,-36.825164794921875,-237.01251220703125,-391.86846923828125,32.07140920324496,34.84975897172642
5815,84536.41010304168,5.995452328060641,19.466656053577367,43.196721711999444,0.13800414919231438,0.11007098625135295,0.3705234124836686,0.9118945630631099,0.7011935710906982,0.7061370611190796,-0.09847872704267502,-0.6453760862350464,0.6873344779014587,0.3332582414150238,0.30301380157470703,-0.17012271285057068,0.9376784563064575,0.09847873449325562,-0.3332582116127014,-0.9376784563064575,84536.40385604167,84536.40385604167,-0.00506591796875,-0.390045166015625,-0.9821014404296875,84536.40385604167,84536.40385604167,-0.8701122403144836,-0.45168009400367737,-0.34426149725914,84536.37616604168,84536.37616604168,-33.14945983886719,-235.0582275390625,-393.62176513671875,32.07140920324496,34.84975897172642
5816,84536.47507404168,3.831134210270703,19.903029466838074,41.98921401698016,0.14945618957779877,0.09261960725235734,0.3580854622373838,0.9169837586394072,0.7263928055763245,0.6844022274017334,-0.06282517313957214,-0.6290318965911865,0.6988753080368042,0.34042927622795105,0.27689751982688904,-0.2077663242816925,0.9381688833236694,0.06282517313957214,-0.34042927622795105,-0.9381688833236694,84536.47382504167,84536.47382504167,0.0557708740234375,-0.3046722412109375,-0.8996734619140625,84536.47382504167,84536.47382504167,1.331249713897705,-0.9138370752334595,-0.5064908862113953,84536.45582804167,84536.45582804167,-34.01374816894531,-235.02420043945312,-392.38604736328125,32.07140920324496,34.84975897172642
5818,84536.61001404167,-1.4429639565839443,29.001078251810917,38.60189997860596,0.2403267907062135,0.0712489390939585,0.3170000506586832,0.9147008616292813,0.7888690829277039,0.6141664981842041,0.022024288773536682,-0.5456744432449341,0.6835079789161682,0.48482608795166016,0.28271013498306274,-0.39448243379592896,0.8743332624435425,-0.022024277597665787,-0.48482608795166016,-0.8743332624435425,84536.60376704167,84536.60376704167,0.0116729736328125,-0.39910888671875,-0.8120269775390625,84536.60376704167,84536.60376704167,0.9558047652244568,-1.2272698879241943,-0.30336493253707886,84536.57532004167,84536.57532004167,-34.70994567871094,-237.01141357421875,-392.9849853515625,32.07140920324496,34.84975897172642
5819,84536.67498504167,-2.8292267143875107,32.90825457972912,37.637077596871464,0.27566211612451724,0.0689293588581312,0.3026485513783606,0.9097598789534873,0.8073052167892456,0.5886774659156799,0.04143914580345154,-0.5126726031303406,0.6648285388946533,0.5432953834533691,0.2922758162021637,-0.45984992384910583,0.8385182619094849,-0.04143914952874184,-0.5432953834533691,-0.8385182619094849,84536.67373604167,84536.67373604167,-0.111663818359375,-0.545440673828125,-0.7916412353515625,84536.67373604167,84536.67373604167,0.8904987573623657,-0.13707716763019562,-0.022101040929555893,84536.65497204167,84536.65497204167,-35.103973388671875,-238.44041442871094,-393.60791015625,32.07140920324496,34.84975897172642
5821,84536.80992504167,-9.174559105912884,35.675797811807946,39.73824173993678,0.31304257251555123,0.03217724193896386,0.2994568882620702,0.9007189194967643,0.8185803890228271,0.5595986843109131,0.1295202076435089,-0.5193072557449341,0.6246598362922668,0.5831981301307678,0.24545082449913025,-0.5446553826332092,0.8019379377365112,-0.1295202076435089,-0.5831981301307678,-0.8019379377365112,84536.80367804167,84536.80367804167,-0.123016357421875,-0.493621826171875,-0.81341552734375,84536.80367804167,84536.80367804167,0.3760378062725067,-0.9780080914497375,0.52898770570755,84536.81427704167,84536.81427704167,-35.76708984375,-239.9137420654297,-394.0104064941406,32.07140920324496,34.84975897172642
5822,84536.87489604167,-16.39438143666857,38.29394939968401,44.11983295008293,0.3514624383728116,-0.0029046963541373414,0.3078326449478371,0.8841406741517812,0.8104612231254578,0.5422930121421814,0.2215195596218109,-0.5463765263557434,0.5634264349937439,0.6196961402893066,0.21124690771102905,-0.6232727766036987,0.7529314160346985,-0.22151954472064972,-0.6196961402893066,-0.7529314160346985,84536.87364704168,84536.87364704168,-0.2690582275390625,-0.7221832275390625,-0.710723876953125,84536.87364704168,84536.87364704168,0.9127710461616516,-1.2121622562408447,0.3291794955730438,84536.85410504167,84536.85410504167,-36.10597229003906,-240.01637268066406,-393.7797546386719,32.07140920324496,34.84975897172642
5824,84537.00983604167,-26.66453362383322,43.6296967681439,40.68338339326652,0.4134626268408749,-0.07503708326058976,0.23367923901638823,0.8768192866115273,0.8795269131660461,0.3477388620376587,0.32482320070266724,-0.47183895111083984,0.5488853454589844,0.6899948120117188,0.06164734065532684,-0.7601332664489746,0.6468361616134644,-0.32482320070266724,-0.6899948120117188,-0.6468361616134644,84537.00358904168,84537.00358904168,-0.4170379638671875,-0.7514495849609375,-0.3882904052734375,84537.00358904168,84537.00358904168,0.7271292805671692,-0.7736152410507202,-0.005287173669785261,84537.01341104167,84537.01341104167,-39.03422546386719,-243.0037384033203,-391.48736572265625,32.07140920324496,34.84975897172642
5825,84537.07480704167,-28.980926340273996,45.81102289185415,42.07617862801773,0.4344553368984369,-0.07984653278376086,0.22926571114530156,0.867358275122575,0.8821235299110413,0.32833150029182434,0.3377225399017334,-0.46709051728248596,0.5173715949058533,0.7170447111129761,0.06070031225681305,-0.7902690172195435,0.6097461581230164,-0.3377225399017334,-0.7170447111129761,-0.6097461581230164,84537.07355804167,84537.07355804167,-0.349273681640625,-0.71685791015625,-0.63623046875,84537.07355804167,84537.07355804167,0.36774206161499023,-0.5854339003562927,0.019110843539237976,84537.05323404167,84537.05323404167,-39.203887939453125,-243.1632537841797,-391.1394958496094,32.07140920324496,34.84975897172642
5827,84537.20974704168,-34.39806762227467,45.86424447424127,43.44622237389918,0.4465757721324173,-0.11521762060589937,0.21859574657174677,0.8599481699937518,0.8778815865516663,0.27305522561073303,0.39340150356292725,-0.4788688123226166,0.5055719614028931,0.7176918387413025,-0.002923235297203064,-0.8184362053871155,0.5745899677276611,-0.39340150356292725,-0.7176918983459473,-0.5745899677276611,84537.20350004167,84537.20350004167,-0.442413330078125,-0.714324951171875,-0.5378875732421875,84537.20350004167,84537.20350004167,0.3227287828922272,-0.7163471579551697,0.2242080718278885,84537.21253904168,84537.21253904168,-39.75138854980469,-243.6478729248047,-390.4423828125,32.07140920324496,34.84975897172642
5828,84537.27471804168,-37.12227531656041,46.38622805245752,44.40758541840633,0.45623151672415235,-0.12980574662433045,0.21322612572950903,0.8541299799301503,0.8753702044487,0.24580270051956177,0.4163029193878174,-0.4826886057853699,0.4927748441696167,0.7240060567855835,-0.027180999517440796,-0.8347179889678955,0.5500065684318542,-0.4163029193878174,-0.7240060567855835,-0.5500065684318542,84537.27346904167,84537.27346904167,-0.5440826416015625,-0.738983154296875,-0.2609100341796875,84537.27346904167,84537.27346904167,-0.2854378819465637,0.15678241848945618,-0.16084374487400055,84537.25236904167,84537.25236904167,-39.96888732910156,-243.34292602539062,-390.5695495605469,32.07140920324496,34.84975897172642
